{
"type": "FeatureCollection",
"name": "afectaciones_metztitlan_puntos",
"crs": { "type": "name", "properties": { "name": "urn:ogc:def:crs:OGC:1.3:CRS84" } },
"features": [
{ "type": "Feature", "properties": { "Fecha_1": "14/10/2025", "Calculo_da": "SOCABON DE CARRETERA 30 METROS LINEALES\n X 4M DE PROFUNDIDAD", "Afectacion": "OBTRUCCION DE AMBOS CARRILES DE\n CARRETERA LA COMUNIDAD SE ENCUENTRA INCOMUNICADO", "Direccion": "JILOTLA" }, "geometry": { "type": "Point", "coordinates": [ -98.748612447206654, 20.548538904247096 ] } },
{ "type": "Feature", "properties": { "Fecha_1": "14/10/2025", "Calculo_da": "DESLAVES ARBOLES, PIEDRAS Y POSTES CAÍDOS,\n SANJAS EN 2 KM DE CAMINO DE TERRACERIA", "Afectacion": "OBSTRUCCfON DE PASO VEHICULAR, LA\n COMUNIDAD SE ENCUENTRA INCOMUNICADA", "Direccion": "JIHUICO- JILIAPA" }, "geometry": { "type": "Point", "coordinates": [ -98.718786410864141, 20.544211341380333 ] } },
{ "type": "Feature", "properties": { "Fecha_1": "14/10/2025", "Calculo_da": "DESLAVES, PIEDRAS, SANJAS EN LA SUPERFICIE\n DE RODAMIENTO EN 10 KM", "Afectacion": "OBSTRUC CION DE PASO VEHICULAR", "Direccion": "JILOTLA-EL TABLON" }, "geometry": { "type": "Point", "coordinates": [ -98.756368375899797, 20.547822112200777 ] } },
{ "type": "Feature", "properties": { "Fecha_1": "14/10/2025", "Calculo_da": "DESLAVES, DERRUMBES, PIEDRAS, ARBOLES,\n POSTES CAIDOS, EN 8 KM DE CAMINO DE TERRACERIA PARTES DE LAS COMUNIDADES SE\n ENCUENTRAN INUNDADAS", "Afectacion": "OBSTRUCCION DE PASO VEHICULAR,\n LAS COMUNIDADES SE ENCUENTRAN INCOMUNICADAS, DAŃOS A VIVIENDAS", "Direccion": "AYACATZITLA-POTRERO DE CAMACHO,\n HACIENDA DE POTRERO, TECRUZ DE ANAHUAC" }, "geometry": { "type": "Point", "coordinates": [ -98.707935763025034, 20.512681609568688 ] } },
{ "type": "Feature", "properties": { "Fecha_1": "14/10/2025", "Calculo_da": "DESLAVES, DERRUMBES, PIEDRAS CAÍDAS,\n SANJAS EN LA SUPERFICIE DE RODAMIENTO EN\n 12 KM", "Afectacion": "OBSTRUCCION DEL PASO VEHICULAR.", "Direccion": "EL TABLON- SANTA MONICA" }, "geometry": { "type": "Point", "coordinates": [ -98.766939383145996, 20.504832523702078 ] } },
{ "type": "Feature", "properties": { "Fecha_1": "14/10/2025", "Calculo_da": "DESLAVES, DERRUMBES, PIEDRAS CAÍDAS,\n SANJAS EN LA SUPERFICIE DE RODAMIENTO EN 12 KM", "Afectacion": "OBSTRUCCION DEL PASO VEHICULAR.", "Direccion": "EL TABLON- CHIMALACATLA" }, "geometry": { "type": "Point", "coordinates": [ -98.791549667283277, 20.553552639942438 ] } },
{ "type": "Feature", "properties": { "Fecha_1": "14/10/2025", "Calculo_da": "CALLES, CAMINOS 12000 M2 CON AFECTACION.\n ARROYO DREN 1500 ML. CON AFECTACION", "Afectacion": "ASOLVES DE CALLES CON MATERIAL\n PRODUCTO DE ESCURRIMIENTO DE", "Direccion": "METZTITLAN BARRIO SAN CERRITO DE QUIMIXTEPEC" }, "geometry": { "type": "Point", "coordinates": [ -98.764751453117015, 20.590722821600991 ] } },
{ "type": "Feature", "properties": { "Fecha_1": "14/10/2025", "Calculo_da": "DEBIDO A LAS CONDICIONES CLIMATICAS\n ADVERSAS REGISTRADAS EN LAS ÚLTIMAS HORAS, SE HAN PRESENTADO DERRUMBES, DESLAVES, INUNDACIONES Y AFECTACIONES EN\n VARIAS VIVIENDAS.", "Afectacion": "DANOS EN VIVIENDAS Y OBSTRUCCION\n DE PASO VEHICULAR", "Direccion": "AYACACINTLA" }, "geometry": { "type": "Point", "coordinates": [ -98.706021192723824, 20.49710371496451 ] } },
{ "type": "Feature", "properties": { "Fecha_1": "14/10/2025", "Calculo_da": "DAÑO ESTRUCTURAL GRAVE EN LOS SOPORTES DEL PUENTE", "Afectacion": "SUSPENCION TOTAL DE TRANSITO VIAL TRAMO CARRETERO PRINCIPAL QUE UNE COMUNIDADES", "Direccion": "MIAHUATLAN" }, "geometry": { "type": "Point", "coordinates": [ -98.762965610874232, 20.580546577162863 ] } },
{ "type": "Feature", "properties": { "Fecha_1": "14/J 0/2025", "Calculo_da": "DERRUMBE Y/O DESLAVES), ARBOLES Y PIEDRAS\n Y AROYOS EN CARRETERA", "Afectacion": "OBSTRUCCION DE PASO VEHICULAR, LA\n COMUNIDAD SE ENCUENTRA INCOMUNICADO", "Direccion": "MACUILA-TEZISCO" }, "geometry": { "type": "Point", "coordinates": [ -98.809427166130774, 20.648049978623646 ] } },
{ "type": "Feature", "properties": { "Fecha_1": "14/10/2025", "Calculo_da": "DERRUMBE Y/O DESLAVES), ARBOLES Y PIEDRAS\n Y AROYOS EN CARRETERA", "Afectacion": "OBSTRUCCION DE PASO VEHICULAR,\n CouUNIDADES iNcouuMcaoAs (TLATEPEXE, PUEBLO NUEVO, COYOMETECO)", "Direccion": "METZTITLAN - TLAMAXA" }, "geometry": { "type": "Point", "coordinates": [ -98.806544464855108, 20.624989973708352 ] } },
{ "type": "Feature", "properties": { "Fecha_1": "14/10/2025", "Calculo_da": "PARTE DE LA COMUNIDAD SE ENCUENTRA\n INUNDADA, VARIAS VIVIENDAS RESULTARON AFECTADAS POR EL INGRESO DE AGUA.\n DERRUMBE Y/O DESLAVES), ARBOLES Y PIEDRAS CAÍDOS SOBRE CARRTERA", "Afectacion": "DANOS EN VIVIENDAS Y OBSTRUCCION\n DE PASO VEHICULAR", "Direccion": "SAN CRISTOBAL\n LATITUD: 20.642953°\n LONGITUD: -98.825610°" }, "geometry": { "type": "Point", "coordinates": [ -98.825609999601738, 20.642952999881118 ] } },
{ "type": "Feature", "properties": { "Fecha_1": "14/10/2025", "Calculo_da": "PARTE DE LA COMUNIDAD SE ENCUENTRA\n INUNDADA, VARIAS VIVIENDAS RESULTARON AFECTADAS POR EL INGRESO DE AGUA. DERRUMBE Y/O DESLAVES), ARBOLES Y PIEDRAS CAÍDOS SOBRE CARRTERA\n PRESENTA FRACTURAS Y HUNDIMIENTOS\n PARCIALES EN DIVERSOS PUNTOS.", "Afectacion": "DANOS EN VIVIENDAS Y OBSTRUCCION\n DE PASO VEHICULAR", "Direccion": "CERRITO DE TLACOTEPEC\n LATITUD: 20.666885°\n LONGITUD: -98.827695°" }, "geometry": { "type": "Point", "coordinates": [ -98.827695000423887, 20.666885000042782 ] } },
{ "type": "Feature", "properties": { "Fecha_1": "14/10/2025", "Calculo_da": "DETERIORO DE CARRETERA DE TERRACERIA 700\n M Y DEBIDO A LAS CONDICIONES CLIMATICAS ADVERSAS REGISTRADAS EN LAS ULTIMAS\n HORAS", "Afectacion": "OBSTRUCCION DE PASO VEHICULAR", "Direccion": "PIE DE LA CUESTA\n LATITUD: 20.625472°\n LONGITUD: -98.844023°" }, "geometry": { "type": "Point", "coordinates": [ -98.844022999761592, 20.625472000432524 ] } },
{ "type": "Feature", "properties": { "Fecha_1": "14/10/2025", "Calculo_da": "CALLES Y CAMINOS 12000 M2 CON AFECTACION,", "Afectacion": "ASOLVES DE CALLES CON MATERIAL\n PRODUCTO DE ESCURRIMIENTO DE AGUA Y DEFORMACION DE SUPERFICIES DE RODAMIENTO", "Direccion": "METZTITLAN BARRIO CENTRO\n (CALLES DE TERRACERIA, EMPEDRADO Y PAVIM ENTO)\n LATITUD: 20.596111\n LONGITUD: -98.763056" }, "geometry": { "type": "Point", "coordinates": [ -98.763055999934409, 20.596110999922757 ] } },
{ "type": "Feature", "properties": { "Fecha_1": "14/J 0/2025", "Calculo_da": "CALLES, CAMINOS 16000 M2 CON AFECTACION", "Afectacion": "ASOLVES DE CALLES CON MATERIAL\n PRODUCTO DE ESCURRIMIENTO DE AGUA Y DEFORMACION DE SUPERFICIES DE RODAMIENTO, DERRUMBES EN\n CALLES DE TERRACERIA", "Direccion": "METZTITLAN BARRIO SAN MARCOS\n (CALLES DE TERRACERIA, EMPEDRADO Y PAVIMENTO)\n LATITU D: 20.59611 1\n LONGITU D: -98.763056" }, "geometry": { "type": "Point", "coordinates": [ -98.763055999934409, 20.596110999922757 ] } },
{ "type": "Feature", "properties": { "Fecha_1": "14/10/2025", "Calculo_da": "CALLES, CAMINOS 120000 M2 ARROYO 3.00 KM\n CON AFECTACION", "Afectacion": "ASOLVES DE CALLES CON MATERIAL\n PRODUCTO DE ESCURRIMIENTO DE AGUA Y DEFORMACIO N DE SUPERFICIES DE RODAMIENTO, DERRUMBES EN\n CALLES DE TERRACERIA", "Direccion": "METZTITLAN BARRIO SAN TEPEYAC\n (CALLES DE TERRACERIA, EMPEDRADO Y\n PAVIMENTO)\n LATITUD: 20.596111\n LONGITUD: -98.763056" }, "geometry": { "type": "Point", "coordinates": [ -98.763055999934409, 20.596110999922757 ] } },
{ "type": "Feature", "properties": { "Fecha_1": "14/10/2025", "Calculo_da": "CALLES, CAMINOS 12000 M2 CON AFECTACION. ARROYO 500 ML. CON AFECTACION", "Afectacion": "ASOLVES DE CALLES CON MATERIAL PRODUCTO DE ESCURRIMIENTO DE AGUA Y DERRUMBES Y ASOLVE DE ARROYO DR EN POR INUNDACION", "Direccion": "METZTITLAN BARRIO SAN COATLAN (CALLES DE TERRACERIA, EM PEDRADO Y PAVIMENTO)\n LATITUD: 20.596111\n LONGITUD: -98.763056" }, "geometry": { "type": "Point", "coordinates": [ -98.763055999934409, 20.596110999922757 ] } },
{ "type": "Feature", "properties": { "Fecha_1": "14/10/2025", "Calculo_da": "CALLES, CAMINOS 120000M2 CON AFECTACION", "Afectacion": "ASOLVES DE CALLES CON MATERIAL\n PRODUCTO DE ESCURRIMIENTO DE AGUA Y DEFORMACION DE SUPERFICIES DE RODAMIENTO, DERRUMBES EN CALLES DE TERRACERIA", "Direccion": "METZTITLAN BARRIO EL CALVARIO\n (CALLES DE TERRACERIA, EM PEDRADO Y PAVIMENTO)\n LATITU D: 20.596111\n LONGITUD -98.763056" }, "geometry": { "type": "Point", "coordinates": [ -98.763055999934409, 20.596110999922757 ] } },
{ "type": "Feature", "properties": { "Fecha_1": "14/10/2025", "Calculo_da": "CALLES, CAMINOS 12000 M2 CON AFECTACION.\n ARROYO DR EN 40000 ML. CON AFECTACION", "Afectacion": "ASOLVES DE CALLES CON MATERIAL\n PROOUCTO DE ESCURRIMIENTO DE AGUA Y ASOLVE DE ARROYO OREN POR INUNDACION", "Direccion": "METZTITLAN BARRIO SAN CERRITO DE\n TLAXOMOTL\n (CALLES DE TERRACERIA, EMPEORADO Y PAVIMENTO)\n LATITU D: 20.596111\n LONGITUD: -98.763056" }, "geometry": { "type": "Point", "coordinates": [ -98.763055999934409, 20.596110999922757 ] } }
]
}
